{"@id":"https://w3id.org/KTOP_2","type":"FeatureCollection","@context":"https://w3id.org/locolligo/contexts/linkedplaces.jsonld","features":[{"@id":"https://w3id.org/KTOP_2/63fa494d-0df1-44ab-bd6b-d48b5cee79d9","type":"Feature","properties":{"title":"The Isle of Man, etc.","url":"https://www.flickr.com/photos/britishlibrary/50263948491"},"geometry":{"type":"Point","coordinates":[-1.7515813,49.7898138]}},{"@id":"https://w3id.org/KTOP_2/2ae48ecd-f10d-4545-b4b0-e45b0a605f59","type":"Feature","properties":{"title":"Sarnia Insvla Vulgo Garnsey ;","url":"https://www.flickr.com/photos/britishlibrary/50263948171"},"geometry":{"type":"Point","coordinates":[-1.83250367,49.5832685]}},{"@id":"https://w3id.org/KTOP_2/647aa575-97b0-4236-840b-18175da31b3e","type":"Feature","properties":{"title":"Garnsey.","url":"https://www.flickr.com/photos/britishlibrary/50264132177"},"geometry":{"type":"Point","coordinates":[-2.420835019,49.56439104]}},{"@id":"https://w3id.org/KTOP_2/01b3f721-eba4-4210-adf0-59959de59313","type":"Feature","properties":{"title":"The Isle of Man, etc.","url":"https://www.flickr.com/photos/britishlibrary/50263947956"},"geometry":{"type":"Point","coordinates":[-2.371114338,49.52758761]}},{"@id":"https://w3id.org/KTOP_2/fecb587c-cc69-4d9e-b9ec-dd008cf3ae1e","type":"Feature","properties":{"title":"[Plan of the Town of St. Peters and Castle Cornet in the Island of Guernsey].","url":"https://www.flickr.com/photos/britishlibrary/50263291038"},"geometry":{"type":"Point","coordinates":[-2.520053811,49.46756335]}},{"@id":"https://w3id.org/KTOP_2/099c82fb-73f6-4546-a8fb-0dd4cb88230d","type":"Feature","properties":{"title":"[Plan of Castle Cornet Scituatet att ye Estpart of the Iland od Gernezey.].","url":"https://www.flickr.com/photos/britishlibrary/50263290548"},"geometry":{"type":"Point","coordinates":[-2.523229174,49.45551597]}},{"@id":"https://w3id.org/KTOP_2/c1918639-84e4-48b5-bc12-a6e5e60e4c62","type":"Feature","properties":{"title":"Bouche de Vall.","url":"https://www.flickr.com/photos/britishlibrary/50263290158"},"geometry":{"type":"Point","coordinates":[-2.501414374,49.48610114]}},{"@id":"https://w3id.org/KTOP_2/4e33bcba-cf07-4800-b3e8-f6dfb0db8a42","type":"Feature","properties":{"title":"Plan of St. Aubin's Fort in Iersey","url":"https://www.flickr.com/photos/britishlibrary/50263946456"},"geometry":{"type":"Point","coordinates":[-2.158316133,49.18575447]}},{"@id":"https://w3id.org/KTOP_2/335cbae8-9288-4a35-8548-a3de47cdad13","type":"Feature","properties":{"title":"Survey of the Bay of. St. Hellier in the Island of Jersey ;","url":"https://www.flickr.com/photos/britishlibrary/50264130367"},"geometry":{"type":"Point","coordinates":[-2.086439454,49.21698443]}},{"@id":"https://w3id.org/KTOP_2/a529600e-8e4f-4407-ad77-0d59c1580cd3","type":"Feature","properties":{"title":"The Town Hill of St. Heliers, in Jersey, as proposed to be fortified. 1756.","url":"https://www.flickr.com/photos/britishlibrary/50264130247"},"geometry":{"type":"Point","coordinates":[-2.089514458,49.1934514]}},{"@id":"https://w3id.org/KTOP_2/5c6143cf-834f-46c5-87ad-55f6aee1058c","type":"Feature","properties":{"title":"Plan of Mount Orgueil Castle in Jersey 1755.","url":"https://www.flickr.com/photos/britishlibrary/50263287983"},"geometry":{"type":"Point","coordinates":[-2.017531071,49.20052873]}},{"@id":"https://w3id.org/KTOP_2/525da674-a712-4d06-827d-657a67086b2e","type":"Feature","properties":{"title":"Mona.","url":"https://www.flickr.com/photos/britishlibrary/50263943956"},"geometry":{"type":"Point","coordinates":[-4.055663177,54.48971889]}},{"@id":"https://w3id.org/KTOP_2/f49f0351-4dde-4d0f-ba91-0bce74dfb55b","type":"Feature","properties":{"title":"A Correct Plan of the Isle of Man","url":"https://www.flickr.com/photos/britishlibrary/50263287133"},"geometry":{"type":"Point","coordinates":[-4.16101628,54.46624402]}},{"@id":"https://w3id.org/KTOP_2/5dee80c2-40d2-46c1-8c9a-fa70ad3e1efa","type":"Feature","properties":{"title":"DUCATUS LUNEBURGENSIS adiacentiumq: regionum delineatio.","url":"https://www.flickr.com/photos/britishlibrary/50265924516"},"geometry":{"type":"Point","coordinates":[11.95713169,53.65196884]}},{"@id":"https://w3id.org/KTOP_2/631e7438-abea-4fea-b0fd-ce1da479d854","type":"Feature","properties":{"title":"[Map of the route from Celle to the Forest of Göhrde showing the posts for relays].","url":"https://www.flickr.com/photos/britishlibrary/50266103297"},"geometry":{"type":"Point","coordinates":[10.46576477,52.85010936]}},{"@id":"https://w3id.org/KTOP_2/cd3f00ae-2a5a-4ad1-ae41-9b6fce53fdf4","type":"Feature","properties":{"title":"Plan Vom Elb-Strohm, von Kumlosen eine Meile vor Schnackenburg bis Boitzenburg.","url":"https://www.flickr.com/photos/britishlibrary/50265924401"},"geometry":{"type":"Point","coordinates":[11.72150363,53.45159883]}},{"@id":"https://w3id.org/KTOP_2/e45b0928-f985-4cbe-817b-2a1027c98090","type":"Feature","properties":{"title":"[Map of the River Elbe from Domitz to Schnackenburg].","url":"https://www.flickr.com/photos/britishlibrary/50265264493"},"geometry":{"type":"Point","coordinates":[11.68817918,53.13740543]}},{"@id":"https://w3id.org/KTOP_2/7b95b21c-ecd1-4fa5-8932-7394324481e5","type":"Feature","properties":{"title":"GENERAL CARTE VON DEM ELBSTROHM wie solche auf Allergnädigsten Befehl Ihro Königlichen Majestät von Gross-Britannien und Ihro Königlichen Majestät von Preussen an Brandenburgscher Seiten von Lücken Wische bis neben Dömitz und Braunsweig Luneburgscher Seiten von Schnackenburg bis Brandleben von uns hierzu von beyden Seiten specialiter beorderten und zu ende unterschriebenen Majors gemeinsahm aufgenommmen, aufgetragen u. in 2 gleiche Carten gebracht darinnen die Ilfer mit denen Vorlanden, Deichen, und angelegten Wasser Wercken, Insulen, Werderen, Sandfeldern und angesehten Sanden, auch wie der Strohm und die Schiffahrt bey den niedrigsten Wasser sich wurklichen befunden angedeutet worden im Jahr 1724","url":"https://www.flickr.com/photos/britishlibrary/50265264438"},"geometry":{"type":"Point","coordinates":[11.63676813,53.14981282]}},{"@id":"https://w3id.org/KTOP_2/d25b9572-9295-4fca-8043-3ab1a21e1cb3","type":"Feature","properties":{"title":"[Map of the River Elbe between Hamburg and Harbug].","url":"https://www.flickr.com/photos/britishlibrary/50265924236"},"geometry":{"type":"Point","coordinates":[10.20384371,53.58260986]}},{"@id":"https://w3id.org/KTOP_2/ab48c9c0-d335-42d7-9954-8ebf1d6d3a6e","type":"Feature","properties":{"title":"ELB CARTE worauf specialiter angezeichnete wie der Strohm in hiessiger Königl. Hoheit zwischen denen Ambtern HAAR- und WILHELMSBURG seinen Lauf hält, auch was vor Insul, Werders, und Sande, Vorlandt, Anwachs und Abbruch, Teichen und Schleusen mit ihren Ausswäntzenden sich darinnen befinden, nebst deren an dieser Elbe Gränzenden Situation","url":"https://www.flickr.com/photos/britishlibrary/50266102732"},"geometry":{"type":"Point","coordinates":[10.16527288,53.59022104]}},{"@id":"https://w3id.org/KTOP_2/7d6fa029-04ac-462e-991b-f28633a2aced","type":"Feature","properties":{"title":"PLAN des vom Crusenbusch ab, nach der grossen Kattewick gemachten Neuen-Teichs, zwischen 2. Ries bancken geleget, mit der Arbeit is angefangen den 24 July und vollendet den 20 8br 1726.","url":"https://www.flickr.com/photos/britishlibrary/50265923791"},"geometry":{"type":"Point","coordinates":[9.990747757,53.49775252]}},{"@id":"https://w3id.org/KTOP_2/7b120ebf-da33-4f2b-b7c7-677e7e5739da","type":"Feature","properties":{"title":"GRUND RISS Des Ao 1727 im Monat Juni et July gelegten Stack-Wercks am Hagelsorth, das Uffer vor dem stetigen unten und oben nachfallenden abbruch zu verwahren.","url":"https://www.flickr.com/photos/britishlibrary/50265263953"},"geometry":{"type":"Point","coordinates":[10.4856873,53.38431993]}},{"@id":"https://w3id.org/KTOP_2/d6617a38-d30f-45c0-8945-13531c8799c7","type":"Feature","properties":{"title":"PERSPECTIVISCHE ZEICHNUNG der am Hagels-Orth 1727 in der Elbe gebaueten Wasser-Wercken den fernern Ab- auch Unterbruch dadurch zu verwehren","url":"https://www.flickr.com/photos/britishlibrary/50266102587"},"geometry":{"type":"Point","coordinates":[10.09247727,53.45390885]}},{"@id":"https://w3id.org/KTOP_2/4e769a2c-88f9-452c-bbce-fbd64fae8015","type":"Feature","properties":{"title":"Situations Plan von dem in Amte Haarburg belegenen sehr gefährlichen Overn Elb Deichen nebst dem Entwurf wie solche mittelst Anlegung Zewyer Defensions Werke zu Abweisung des sehr hart andringenden Elbe Strohms in Sicherheit gestellet werden müssen und denen vor dieser gefährlichen Deich Gegend vorhandenen ansehlichen Wasser Tieffen.","url":"https://www.flickr.com/photos/britishlibrary/50265923661"},"geometry":{"type":"Point","coordinates":[10.1271426,53.43977745]}},{"@id":"https://w3id.org/KTOP_2/ce03ee8f-cc1f-4915-ac88-1da1752be6ac","type":"Feature","properties":{"title":"DUCATUS LUNEBURGICI et DANNEBERGENSIS COMITATUS Nova Descriptio in Eorumdem PRAEFECTURAS Subjacentes Distincte Divisa","url":"https://www.flickr.com/photos/britishlibrary/50265923616"},"geometry":{"type":"Point","coordinates":[11.82106168,53.59100987]}},{"@id":"https://w3id.org/KTOP_2/353c06d0-8de8-4285-87b5-e5564d65ece3","type":"Feature","properties":{"title":"SITUATIONS PLAN von der Deich Gegend unterhalb dem kirchdorffe ASSEL Landes KESDINGEN nebst der Bescaffenheit der Elb Ufer und deren Abbruch imgleichen der vor selben befindlichen Wasser Tieffen bey der ordentlich niedrigsten Ebbe.","url":"https://www.flickr.com/photos/britishlibrary/50265263698"},"geometry":{"type":"Point","coordinates":[9.446403766,53.70481713]}},{"@id":"https://w3id.org/KTOP_2/dc3f72d1-9592-48be-ab9c-e29c427873d5","type":"Feature","properties":{"title":"Plan von dem Lauffe des Fusen Flusses oberhalb Zelle bis zu ende der Wathlingschen Wiesen auf welchem zugleich die Hindernissen welche den freyen Ablauf des Flusses hemmen nebst den angrentzenden Eigenthümern der Wiesen bemerket sind.","url":"https://www.flickr.com/photos/britishlibrary/50266102442"},"geometry":{"type":"Point","coordinates":[10.20635402,52.65097815]}},{"@id":"https://w3id.org/KTOP_2/d408c398-bbe5-4e72-aab4-73d2482b4c5a","type":"Feature","properties":{"title":"PLAN du Cours de l'Ocker depuis les Limites du Duché de Bronsvic, jusqu'a son ambouchure dans l'Aller, et celui de Giffhorn jusqu'a Fletmer, avec ses Situations","url":"https://www.flickr.com/photos/britishlibrary/50265923461"},"geometry":{"type":"Point","coordinates":[10.6414861,52.57858193]}},{"@id":"https://w3id.org/KTOP_2/54bc997a-6a82-40d7-86c3-cfdfd735cb40","type":"Feature","properties":{"title":"PLAN von LUNEBURG.","url":"https://www.flickr.com/photos/britishlibrary/50265923396"},"geometry":{"type":"Point","coordinates":[10.43111392,53.25786132]}},{"@id":"https://w3id.org/KTOP_2/34889599-9648-471b-9a69-61511143b6b2","type":"Feature","properties":{"title":"PLAN VON DER STADT LUNEBURG","url":"https://www.flickr.com/photos/britishlibrary/50265923061"},"geometry":{"type":"Point","coordinates":[10.42321956,53.25884791]}},{"@id":"https://w3id.org/KTOP_2/84961fc5-bd0e-4651-baa2-e5a4ca986a87","type":"Feature","properties":{"title":"PLAN Und Grund Riss des Castelis Lünnebourg Mit Seinem Provillen","url":"https://www.flickr.com/photos/britishlibrary/50265923001"},"geometry":{"type":"Point","coordinates":[10.43244406,53.26083216]}},{"@id":"https://w3id.org/KTOP_2/1c9a8ff9-4302-477f-875e-da50b9767a40","type":"Feature","properties":{"title":"Environs Von der Stadt Zelle. 1732.","url":"https://www.flickr.com/photos/britishlibrary/50265263028"},"geometry":{"type":"Point","coordinates":[10.32694077,52.71607366]}},{"@id":"https://w3id.org/KTOP_2/bc3890b9-dc71-41c3-921f-1d9418d77153","type":"Feature","properties":{"title":"tabula ichnographica CELLAE ad Alleram PRINCIPUM LUNEBURGENSIUM quondam sedis calamo","url":"https://www.flickr.com/photos/britishlibrary/50265922866"},"geometry":{"type":"Point","coordinates":[10.09206349,52.6288664]}},{"@id":"https://w3id.org/KTOP_2/1137f1ab-67a9-4e4e-a199-3431e2d4be9d","type":"Feature","properties":{"title":"Grundt Ris der Stadt und Schlos ZELLE.","url":"https://www.flickr.com/photos/britishlibrary/50265262903"},"geometry":{"type":"Point","coordinates":[10.09364997,52.63050696]}},{"@id":"https://w3id.org/KTOP_2/c3bf37f2-1195-4104-acb0-0321a7867d1c","type":"Feature","properties":{"title":"PLAN, DES NEUERN CANINEN GARTENS VOR CELLE OHNWEIT VON DEM DORFE KLEINHELEN; DESSEN INHALT ÜBER HAUPT BETRÄGT, 430 MORGEN, 50 QUADRAT, RUTHEN, 217 QUADRAT FUSS","url":"https://www.flickr.com/photos/britishlibrary/50266101662"},"geometry":{"type":"Point","coordinates":[10.07136645,52.63473468]}},{"@id":"https://w3id.org/KTOP_2/41d02943-4bd2-48df-abba-3162261c9f53","type":"Feature","properties":{"title":"Plan von der Stadt und Festung Haarburg.","url":"https://www.flickr.com/photos/britishlibrary/50266101497"},"geometry":{"type":"Point","coordinates":[10.01141006,53.48905991]}},{"@id":"https://w3id.org/KTOP_2/0fa9ebb1-f0c5-4f71-9242-296f19be9df1","type":"Feature","properties":{"title":"DUCATUS LUNEBURGICI ET COMITATUS DANNEBERGENSIS","url":"https://www.flickr.com/photos/britishlibrary/50265922556"},"geometry":{"type":"Point","coordinates":[11.801951,53.67695753]}},{"@id":"https://w3id.org/KTOP_2/a38b4adf-8882-4327-898e-b70f631d7ce3","type":"Feature","properties":{"title":"PLAN VON DER STADT UND VESTUNG HARBURG SAMT DER SITUATION WORINne die Berge Thaeler Flüsse und deiche ect. alles accurat marquieret.","url":"https://www.flickr.com/photos/britishlibrary/50265262198"},"geometry":{"type":"Point","coordinates":[10.04602961,53.49002102]}},{"@id":"https://w3id.org/KTOP_2/1cf89d84-b6e2-4a0e-b273-bf00caca7cd8","type":"Feature","properties":{"title":"Plan von der Stadt und Vestung Haarburg.","url":"https://www.flickr.com/photos/britishlibrary/50266100987"},"geometry":{"type":"Point","coordinates":[9.994720876,53.47823924]}},{"@id":"https://w3id.org/KTOP_2/d0988123-d1ee-4c04-b206-e0e11e8a571e","type":"Feature","properties":{"title":"Plan von der Citadelle Haarburg, wie solche in gegenwärtigen 1763ten Jahr beschaffen ist.","url":"https://www.flickr.com/photos/britishlibrary/50265262103"},"geometry":{"type":"Point","coordinates":[10.01394668,53.47930753]}},{"@id":"https://w3id.org/KTOP_2/ec7e8c46-0bcb-4ce6-909d-789ad07d2929","type":"Feature","properties":{"title":"PLAN der Stadt und Festung HAARBURG","url":"https://www.flickr.com/photos/britishlibrary/50266100847"},"geometry":{"type":"Point","coordinates":[10.00068707,53.4752965]}},{"@id":"https://w3id.org/KTOP_2/5ccb1426-2893-40e0-be27-1cad3c851ac6","type":"Feature","properties":{"title":"SITUATIONS PLAN VON DER STADT UND FESTUNG HAARBURG aufgenommen Ao 1770.","url":"https://www.flickr.com/photos/britishlibrary/50265921896"},"geometry":{"type":"Point","coordinates":[10.01641309,53.48455225]}},{"@id":"https://w3id.org/KTOP_2/f893ec20-790a-4a27-be75-5d6deb5d1303","type":"Feature","properties":{"title":"PLAN DER IM AMTE HARBURG OHNWEIT MEKELFELD belegenenen Pulver Mühle","url":"https://www.flickr.com/photos/britishlibrary/50265261798"},"geometry":{"type":"Point","coordinates":[10.03875729,53.42162798]}},{"@id":"https://w3id.org/KTOP_2/82f61c56-0a2b-40b6-bed7-1f4d5c4a3d1c","type":"Feature","properties":{"title":"Plan der Höper Schantz.","url":"https://www.flickr.com/photos/britishlibrary/50265261703"},"geometry":{"type":"Point","coordinates":[9.638467748,53.57176456]}},{"@id":"https://w3id.org/KTOP_2/0d9d33b6-8a15-4bcd-8854-c31bfdc3c24c","type":"Feature","properties":{"title":"PLAN Von dem Schlos und der Stadt Giffhorn.","url":"https://www.flickr.com/photos/britishlibrary/50265261573"},"geometry":{"type":"Point","coordinates":[10.5578079,52.49477068]}},{"@id":"https://w3id.org/KTOP_2/1afbea1f-0d7e-43df-9927-df7097735021","type":"Feature","properties":{"title":"PLAN Von dem Schloss und der Stadt Giffhorn.","url":"https://www.flickr.com/photos/britishlibrary/50265261243"},"geometry":{"type":"Point","coordinates":[10.55927857,52.49495285]}},{"@id":"https://w3id.org/KTOP_2/4277131d-9014-4e80-930f-ac5a661bba5a","type":"Feature","properties":{"title":"[Plan of the castle Gifhorn].","url":"https://www.flickr.com/photos/britishlibrary/50265921146"},"geometry":{"type":"Point","coordinates":[10.55045858,52.49172902]}},{"@id":"https://w3id.org/KTOP_2/c0af9d4e-c243-4b80-9d9c-5421cc04f566","type":"Feature","properties":{"title":"DUCATUS LUNEBURGICI et COMTATUS DANNEBERGENSIS accurata Descriptio","url":"https://www.flickr.com/photos/britishlibrary/50265920991"},"geometry":{"type":"Point","coordinates":[11.65092777,53.64468872]}},{"@id":"https://w3id.org/KTOP_2/9446edfe-b5e0-467e-8c11-d905209d4c94","type":"Feature","properties":{"title":"MILITAIR CARTE der Fürstenthümer GOTTINGEN GRUBENHAGEN und der Grafschaft HOHENSTEIN","url":"https://www.flickr.com/photos/britishlibrary/50265920781"},"geometry":{"type":"Point","coordinates":[11.7101852,52.28265594]}},{"@id":"https://w3id.org/KTOP_2/169baa58-0254-47a5-ad99-b508c226fa96","type":"Feature","properties":{"title":"Delineatio aureae Steriliatis Herciniensis i. e. HERCINIAE METALLIFERAE accurata Chorographia, omnes simul sodinas & loca nativa minerarum, quae ibi effodiuntur addita nomenclatura, distincta exhibens.","url":"https://www.flickr.com/photos/britishlibrary/50266099697"},"geometry":{"type":"Point","coordinates":[10.78018128,51.97168237]}},{"@id":"https://w3id.org/KTOP_2/2f5340b3-1c62-4a81-b0e6-214c12a2d0ac","type":"Feature","properties":{"title":"CHARTE von dem Grubenhagischen und Communion Haartz.","url":"https://www.flickr.com/photos/britishlibrary/50266099597"},"geometry":{"type":"Point","coordinates":[10.88598565,51.9771099]}},{"@id":"https://w3id.org/KTOP_2/72e9b3bc-343f-401c-ac1d-0c881105cb3d","type":"Feature","properties":{"title":"Topographische carte des HARZ GEBIRGES","url":"https://www.flickr.com/photos/britishlibrary/50266099522"},"geometry":{"type":"Point","coordinates":[11.10730022,52.0779273]}},{"@id":"https://w3id.org/KTOP_2/27e1c178-e5c1-4b90-ad1c-b4ae7868c234","type":"Feature","properties":{"title":"Petrographische Carte des HARZ GEBIRGES","url":"https://www.flickr.com/photos/britishlibrary/50266099027"},"geometry":{"type":"Point","coordinates":[11.13053813,52.08321107]}},{"@id":"https://w3id.org/KTOP_2/c448fa7a-1ae2-404a-889d-313f1e818501","type":"Feature","properties":{"title":"PROSPECTE des HARTZWALDS nebst accurater Vorstellung der auf selbigem gebräuchlichen BERGWERKS-MACHINEN, Ertz-und Praege-Arbeiten, als ein Anhang zur Geographischen Charte des Hartzwalds, herausgegeben von Hommaenischen Erben. Nurnb. cum P. S. C. M. = PROSPECTUS HERCINIENSES, una cum Iconibus MACHINARUM, et quae porro circa VENAS eruendas, tundendas, urendas lavandas, cribrandas et excoquendas, itemque circa duplicem monetandi modum notatu digna occurrunt, uti in Fodinis Herciniensibus in usu sunt, representata omnia. et pro illustranda mappa Chorographica","url":"https://www.flickr.com/photos/britishlibrary/50265259913"},"geometry":{"type":"Point","coordinates":[10.34607048,51.82179079]}},{"@id":"https://w3id.org/KTOP_2/34ae6167-f8bf-4c8e-a7af-0ca0b53d2081","type":"Feature","properties":{"title":"PROFIL RISS von dem TIEFEN GEORG=STOLLEN nach denen wahren Tiefen Stollen Linien im Schluss des Quartets Trinitatis 1789 ausgezeichnet","url":"https://www.flickr.com/photos/britishlibrary/50266097477"},"geometry":{"type":"Point","coordinates":[11.82677328,52.26043309]}},{"@id":"https://w3id.org/KTOP_2/4a0f614c-e394-429a-aa9b-671c012bb206","type":"Feature","properties":{"title":"PROFIL RISS von dem TIEFEN GEORG=STOLLEN nach denen wahren Tiefen Stollen Linien im Schluss des Quartets Trinitatis 1791 ausgezeichnet","url":"https://www.flickr.com/photos/britishlibrary/50265916741"},"geometry":{"type":"Point","coordinates":[11.71746827,52.22646147]}},{"@id":"https://w3id.org/KTOP_2/17659dcb-0c00-488a-b76a-e62465412fef","type":"Feature","properties":{"title":"PROFIL=RISS von dem TIEFEN GEORG-STOLLEN nach denen wahren Tiefen Stollen Linien im Schluss des Quartets Luciae 1789 ausgezeichnet","url":"https://www.flickr.com/photos/britishlibrary/50265915911"},"geometry":{"type":"Point","coordinates":[10.91986956,52.81086271]}},{"@id":"https://w3id.org/KTOP_2/b965b361-7259-4f6f-ab3b-5b4bec0fea94","type":"Feature","properties":{"title":"MILITAIR CARTE des FURSTENTHUMS CALENBERG belegen an der Weser und Leine","url":"https://www.flickr.com/photos/britishlibrary/50266089912"},"geometry":{"type":"Point","coordinates":[11.02175519,53.14034391]}},{"@id":"https://w3id.org/KTOP_2/27844256-e734-4737-9dc3-85b331d6d3df","type":"Feature","properties":{"title":"PLAN DER CASSELSCHEN STRASSE VON HANNOVER BIS TIEDENWIESE, UND DER HAMELSCHEN VOM STEINCKRUG BIS HACHMUHLE, WORAUF DIE IM IAHRE 1767 FERTIG GEWORDENE CHAUSSEÉS BEMERCKET SIND.","url":"https://www.flickr.com/photos/britishlibrary/50266089462"},"geometry":{"type":"Point","coordinates":[9.859698955,52.38431014]}},{"@id":"https://w3id.org/KTOP_2/e5aec4bc-1006-4946-ad1d-bf348b66774b","type":"Feature","properties":{"title":"PLAN du Grand Chemin de Cassel depuis Hannover jusqu'a Eltze ou la Construction de la Chausee se trouve marquée qui y a eté faite pendant L'année 1765.","url":"https://www.flickr.com/photos/britishlibrary/50265910601"},"geometry":{"type":"Point","coordinates":[9.86765882,52.40431368]}},{"@id":"https://w3id.org/KTOP_2/0109033d-0fd9-4679-9ae5-46ef7aba5d0a","type":"Feature","properties":{"title":"PLAN DE LA PARTIE DU GRAND CHEMIN DE HAMELN, DEPUIS LE STEINCKRUG JUSQU'A HACHMUHLE, ou se trouve marquée la Construction de la Chaussée fait pendant l'Année 1766.","url":"https://www.flickr.com/photos/britishlibrary/50266089347"},"geometry":{"type":"Point","coordinates":[9.843349293,52.313278]}},{"@id":"https://w3id.org/KTOP_2/d7008636-27c9-43dc-bdf4-83f01837c30b","type":"Feature","properties":{"title":"GENERAL PLAN DER LEINE und der daran gränzenden Oerter, von Hannover bis an den Ausfluss derselben in die Aller.","url":"https://www.flickr.com/photos/britishlibrary/50266089272"},"geometry":{"type":"Point","coordinates":[9.866066362,52.78738671]}},{"@id":"https://w3id.org/KTOP_2/d5a657a4-45f0-4743-8c29-e514caaee1e9","type":"Feature","properties":{"title":"PLAN des Amts Wölpe und deßen angrentzenden Gegenden","url":"https://www.flickr.com/photos/britishlibrary/50265910491"},"geometry":{"type":"Point","coordinates":[9.578779794,52.81225144]}},{"@id":"https://w3id.org/KTOP_2/f6641dec-6198-438f-8fbd-f745da0cfe63","type":"Feature","properties":{"title":"PLAN von denen Forsten des Königlichen Amtes Lauenstein ITE PLANCHE LAUSTEINER REVIER","url":"https://www.flickr.com/photos/britishlibrary/50266089192"},"geometry":{"type":"Point","coordinates":[9.570990299,52.11364634]}},{"@id":"https://w3id.org/KTOP_2/b4db94f8-79b3-4b05-95f7-0b11d23b331d","type":"Feature","properties":{"title":"DUCATUS LUNEBURGICI et COMITATUS DANNEBERGENSIS accurata Descriptio","url":"https://www.flickr.com/photos/britishlibrary/50265249893"},"geometry":{"type":"Point","coordinates":[11.73494368,53.65836116]}},{"@id":"https://w3id.org/KTOP_2/a4bea3ea-4e99-45a6-a303-62c3b6731026","type":"Feature","properties":{"title":"Topographisch vermessene Carte der Königl: Churfürstl: Residentz Stadt HANNOVER.","url":"https://www.flickr.com/photos/britishlibrary/50265909756"},"geometry":{"type":"Point","coordinates":[9.891498947,52.47754571]}},{"@id":"https://w3id.org/KTOP_2/0c51f710-7374-4d7c-b1b9-af5afe4f573c","type":"Feature","properties":{"title":"PLAN von der STADT HANNOVER mit der umherliegenden Siuation.","url":"https://www.flickr.com/photos/britishlibrary/50265249768"},"geometry":{"type":"Point","coordinates":[9.774083891,52.41508909]}},{"@id":"https://w3id.org/KTOP_2/b8bb5c27-bb1f-433d-99c6-72329b2775bd","type":"Feature","properties":{"title":"CARTE deren Environs von HANNOVER 1750.","url":"https://www.flickr.com/photos/britishlibrary/50266088392"},"geometry":{"type":"Point","coordinates":[9.790075057,52.40038019]}},{"@id":"https://w3id.org/KTOP_2/aeddc1b9-007e-44e1-8346-ab64d4839538","type":"Feature","properties":{"title":"PLAN DE LA VILLE CHATEAU ET FAUXBOURG D'HANOVRE","url":"https://www.flickr.com/photos/britishlibrary/50266088322"},"geometry":{"type":"Point","coordinates":[9.797550582,52.43046275]}},{"@id":"https://w3id.org/KTOP_2/1eb758d7-a3a7-4961-8902-0aca6eedbab1","type":"Feature","properties":{"title":"SITUATIONS PLAN von der KÖNIGL. und CHURFÜRSTL: Residenz Stadt HANNOVER","url":"https://www.flickr.com/photos/britishlibrary/50266088227"},"geometry":{"type":"Point","coordinates":[9.794939628,52.4069876]}},{"@id":"https://w3id.org/KTOP_2/6e97b7ab-8655-49cd-bdf0-a8fc203e699b","type":"Feature","properties":{"title":"HANNOVER","url":"https://www.flickr.com/photos/britishlibrary/50266088142"},"geometry":{"type":"Point","coordinates":[9.767786822,52.40656573]}},{"@id":"https://w3id.org/KTOP_2/e5b1040e-ca92-43b5-99f1-5074b89b674e","type":"Feature","properties":{"title":"PLAN DE LA VILLE D'HANNOVER","url":"https://www.flickr.com/photos/britishlibrary/50265909401"},"geometry":{"type":"Point","coordinates":[9.748450257,52.38102708]}},{"@id":"https://w3id.org/KTOP_2/6e54cac2-ac4b-408b-8531-3dfb5250bfc3","type":"Feature","properties":{"title":"Plan der Königlich=Churfürstlichen Residentz Stadt HANNOVER belegen, im Fürstenthum Calenberg an der Leine im 52° 22' 18\"\" Nördlicher Breite und 9° 50' Ostlicher Länge von London nach des Professor Lictenbergs Beobachtung Hannover den 31ten Mart 1779.","url":"https://www.flickr.com/photos/britishlibrary/50266087592"},"geometry":{"type":"Point","coordinates":[9.747792414,52.37736486]}},{"@id":"https://w3id.org/KTOP_2/521a9390-f34f-4bec-9877-dcbc304124d0","type":"Feature","properties":{"title":"PLAN der Königliche Chürfürstlichen Residenz Stadt HANNOVER im Fürstenthum Calenber am Leine Fluss belegen","url":"https://www.flickr.com/photos/britishlibrary/50266087067"},"geometry":{"type":"Point","coordinates":[9.755105016,52.38538615]}},{"@id":"https://w3id.org/KTOP_2/a8033d73-37a6-42a1-9223-8230814ab3df","type":"Feature","properties":{"title":"PLAN vom NEUEN ANBAU der Stadt HANNOVER am Aegidien Thor, unter s. K. Maj. GEORG. II. Ao. 1748 angefangen.","url":"https://www.flickr.com/photos/britishlibrary/50265908431"},"geometry":{"type":"Point","coordinates":[9.745137593,52.37011855]}},{"@id":"https://w3id.org/KTOP_2/43735e7b-a851-438f-ad54-5b39b00e9518","type":"Feature","properties":{"title":"Entwurff der zwischen den Stein und Aegidien Thoren neuanzulegenden GEORGEN STRASSE für den Fall, dass das Anatomie Gebäude wegsiele, da denn diese Strasse nur zweyer Allignemens bedürfte und die gantze Anlage noch viel schoner un volkommener würde.","url":"https://www.flickr.com/photos/britishlibrary/50265908386"},"geometry":{"type":"Point","coordinates":[10.53108415,52.27457156]}},{"@id":"https://w3id.org/KTOP_2/19942064-7b61-4ef7-abe8-f3d0fdda76a7","type":"Feature","properties":{"title":"Grund=Riss der neuen Esplanade, und des Parade-Platzes, nach dem von Sr Königlichen Majestaet Allerhöchst genehmigten plan;","url":"https://www.flickr.com/photos/britishlibrary/50265907916"},"geometry":{"type":"Point","coordinates":[9.728154792,52.37141378]}},{"@id":"https://w3id.org/KTOP_2/80478a6d-af8e-4984-9e14-42e8798eb4ba","type":"Feature","properties":{"title":"Veränderungen beym Steinthor auf dem Fall einer hierzuerbauenden Stückgiesserey pro 1781.","url":"https://www.flickr.com/photos/britishlibrary/50265247983"},"geometry":{"type":"Point","coordinates":[9.735597868,52.37803072]}},{"@id":"https://w3id.org/KTOP_2/bac71cb9-5211-4123-9fa5-62afb42ed2ec","type":"Feature","properties":{"title":"Grundrisse vom Erdgeschosse des Königlichen Palais an der Lein Strasse zu Hannover.","url":"https://www.flickr.com/photos/britishlibrary/50266086332"},"geometry":{"type":"Point","coordinates":[9.734011694,52.37130646]}},{"@id":"https://w3id.org/KTOP_2/f8eb3bdd-1cc0-4c86-8fa6-f6174c276584","type":"Feature","properties":{"title":"Grundrisse des Königlichen Palais an der Lein Strasse zu Hannover.","url":"https://www.flickr.com/photos/britishlibrary/50266086242"},"geometry":{"type":"Point","coordinates":[9.733743051,52.371312]}},{"@id":"https://w3id.org/KTOP_2/b831ab3a-72b1-497a-a408-85b588458a07","type":"Feature","properties":{"title":"Grunrisse des Königlichen Palais an der Lein Strasse zu Hannover.","url":"https://www.flickr.com/photos/britishlibrary/50265247833"},"geometry":null},{"@id":"https://w3id.org/KTOP_2/72026ab6-f440-48c3-8d5b-4694e1068730","type":"Feature","properties":{"title":"Abriss des Königl. Archiv= und Bibliothec=Gebäudes zu Hannover","url":"https://www.flickr.com/photos/britishlibrary/50265247708"},"geometry":{"type":"Point","coordinates":[9.731431745,52.37004002]}},{"@id":"https://w3id.org/KTOP_2/66659ccb-5016-4eb4-91f4-e142f150872b","type":"Feature","properties":{"title":"Grund= Riss des Saales und derer Repositoriorum der Königlichen Bibliothek zu Hannover.","url":"https://www.flickr.com/photos/britishlibrary/50265247588"},"geometry":{"type":"Point","coordinates":[9.731204318,52.36996945]}},{"@id":"https://w3id.org/KTOP_2/2d0642d4-c785-4cf3-899e-bde2e4eee04a","type":"Feature","properties":{"title":"Entwurff des Grund Risses von dem Koniglichen Marstall und dem Reit Hause.","url":"https://www.flickr.com/photos/britishlibrary/50266085822"},"geometry":{"type":"Point","coordinates":[9.732897277,52.37413766]}},{"@id":"https://w3id.org/KTOP_2/76de684c-378c-4ced-82c5-298f2d7e2085","type":"Feature","properties":{"title":"PLAN des Situation des Klosters MARIENWERDEN im Jahr 1761.","url":"https://www.flickr.com/photos/britishlibrary/50266085382"},"geometry":{"type":"Point","coordinates":[9.643144778,52.41802281]}},{"@id":"https://w3id.org/KTOP_2/32ef31c1-f436-41b5-9af5-c0d538bc0b22","type":"Feature","properties":{"title":"PLAN der Situation des Klosters MARIENWERDEN im Jahr 1772.","url":"https://www.flickr.com/photos/britishlibrary/50265906741"},"geometry":{"type":"Point","coordinates":[9.642067693,52.41763841]}},{"@id":"https://w3id.org/KTOP_2/5f55dc76-3dd5-4760-9a0b-1b5eeea718d6","type":"Feature","properties":{"title":"PLAN DU CHATEAU ET IARDIN ROYAL A HERRENHAUSEN AVEC QUELQUES AUTRES IARDINS ET MAISONS DE PLAISANCE D'ALENTOUR.","url":"https://www.flickr.com/photos/britishlibrary/50265246643"},"geometry":{"type":"Point","coordinates":[9.735918327,52.39761583]}},{"@id":"https://w3id.org/KTOP_2/7bf8c406-7932-40cb-87bc-2eddb0c0771c","type":"Feature","properties":{"title":"PLAN DU CHATEAU ET IARDIN ROYAL A HERRENHAUSEN AVEC QUELQUES AUTRES IARDINS & MAISONS DE PLAISANCE D'ALENTOUR.","url":"https://www.flickr.com/photos/britishlibrary/50266085042"},"geometry":{"type":"Point","coordinates":[9.736310493,52.3962711]}},{"@id":"https://w3id.org/KTOP_2/cc39cd01-0c23-40bf-ba33-4340a213cbd8","type":"Feature","properties":{"title":"Situations-Plan des Königlichen Schlosses und Garten zu HERRENHAUSEN.","url":"https://www.flickr.com/photos/britishlibrary/50265906456"},"geometry":{"type":"Point","coordinates":[9.712827514,52.40397762]}},{"@id":"https://w3id.org/KTOP_2/20d83ef7-9127-4c99-abf6-1d82f0e842ea","type":"Feature","properties":{"title":"Gründ=Riß der ersten Etage, des Herrenhaüsischen Lust=Schloßes.","url":"https://www.flickr.com/photos/britishlibrary/50265246423"},"geometry":{"type":"Point","coordinates":[9.698999488,52.39202731]}},{"@id":"https://w3id.org/KTOP_2/2333d47f-0519-4760-a78e-30e9fd5930fd","type":"Feature","properties":{"title":"Gründ=Riß der ersten Etage, des Herrenhaüsischen Lust=Schloßes.","url":"https://www.flickr.com/photos/britishlibrary/50265246363"},"geometry":{"type":"Point","coordinates":[9.699039011,52.39195521]}},{"@id":"https://w3id.org/KTOP_2/a7557b7f-ff6e-4198-83a0-d622dece075c","type":"Feature","properties":{"title":"Gründ=Riß der ersten Etage, des Herrenhaüsischen Lust=Schloßes.","url":"https://www.flickr.com/photos/britishlibrary/50265905921"},"geometry":null},{"@id":"https://w3id.org/KTOP_2/644e76ef-bc6b-476e-a9dd-de2be9f30dfd","type":"Feature","properties":{"title":"Erster Gründ=Riß, von der alten Orangerie aber jetzt gemachtes Gallerie.","url":"https://www.flickr.com/photos/britishlibrary/50265245913"},"geometry":null},{"@id":"https://w3id.org/KTOP_2/6482145e-d662-4762-b7e9-713e8dbd0ceb","type":"Feature","properties":{"title":"Plans Generales De la Nouvelle Allée de Herrnhouse.","url":"https://www.flickr.com/photos/britishlibrary/50265903856"},"geometry":{"type":"Point","coordinates":[9.72982409,52.41374529]}},{"@id":"https://w3id.org/KTOP_2/4b31901a-1188-4678-82c4-d2436404a5f6","type":"Feature","properties":{"title":"DUCATUS LUNEBURGICUS cum COMITATU DANEBERGENSI juxta PRAEFECTRAS suas accurrate designatus et mapp Geographica editus","url":"https://www.flickr.com/photos/britishlibrary/50265243848"},"geometry":{"type":"Point","coordinates":[12.06203191,53.63787065]}},{"@id":"https://w3id.org/KTOP_2/85609a40-3754-4bc2-b08b-9bb7ef879b72","type":"Feature","properties":{"title":"Horitzontale Profile und Aufrisse des Graflich Platenschen Schlosses zu Linden","url":"https://www.flickr.com/photos/britishlibrary/50266082232"},"geometry":null},{"@id":"https://w3id.org/KTOP_2/c71d6480-5c9f-4076-91c8-ce49ec8853af","type":"Feature","properties":{"title":"PLAN von der Stadt Neustadt am Rübenberg","url":"https://www.flickr.com/photos/britishlibrary/50265903636"},"geometry":{"type":"Point","coordinates":[9.470611461,52.51191152]}},{"@id":"https://w3id.org/KTOP_2/a5e41438-b415-48b0-bf0d-ff48a1ba4d02","type":"Feature","properties":{"title":"Gründt-Riss Der Stadt und Festung Hameln.","url":"https://www.flickr.com/photos/britishlibrary/50266081347"},"geometry":{"type":"Point","coordinates":[9.371558709,52.11761636]}},{"@id":"https://w3id.org/KTOP_2/b6db2122-b9da-434d-91e5-2fd033094484","type":"Feature","properties":{"title":"PLAN von der Vestung HAMELN nebst dem KLÜTH","url":"https://www.flickr.com/photos/britishlibrary/50266081237"},"geometry":{"type":"Point","coordinates":[9.380408843,52.11448472]}},{"@id":"https://w3id.org/KTOP_2/07cb0270-d944-4216-8424-553b9dd05123","type":"Feature","properties":{"title":"PLAN von der Vestung HAMELN nebst dem KLÜTH","url":"https://www.flickr.com/photos/britishlibrary/50265242893"},"geometry":{"type":"Point","coordinates":[9.366251656,52.10796277]}},{"@id":"https://w3id.org/KTOP_2/d47ac815-4d46-486b-abd0-db052845dac4","type":"Feature","properties":{"title":"PLAN von der Vestung HAMELN nebst dem KLÜTH","url":"https://www.flickr.com/photos/britishlibrary/50265902746"},"geometry":{"type":"Point","coordinates":[9.339432136,52.09651206]}},{"@id":"https://w3id.org/KTOP_2/cf07e0a4-b492-4dc2-9925-db8053c872bd","type":"Feature","properties":{"title":"SITUATIONS PLAN, der Stadt und Vestung HAMELN Im Fürstenthum Calenberg an der Weser gelegen.","url":"https://www.flickr.com/photos/britishlibrary/50266080957"},"geometry":{"type":"Point","coordinates":[9.438084525,52.15768286]}},{"@id":"https://w3id.org/KTOP_2/98ab64aa-2892-4cfd-9f00-8e766bb2590d","type":"Feature","properties":{"title":"PERSPECTIVISCHER GRUND UND STAND RISS VON HAMELN","url":"https://www.flickr.com/photos/britishlibrary/50265902206"},"geometry":{"type":"Point","coordinates":[9.372901166,52.11474454]}},{"@id":"https://w3id.org/KTOP_2/13e9597a-3a0b-443f-9313-c8013dd2a6e3","type":"Feature","properties":{"title":"A. Plan des Forts George mit dem Klüht beij Hameln","url":"https://www.flickr.com/photos/britishlibrary/50265241988"},"geometry":{"type":"Point","coordinates":[9.339490041,52.09542522]}},{"@id":"https://w3id.org/KTOP_2/60e04dc9-4160-448f-ad43-7093f10fd8fd","type":"Feature","properties":{"title":"C. Plan des neu projectirten Geschüllerten Tenaille auff dem Klüth an der Nordlichen Seite des Forts George.","url":"https://www.flickr.com/photos/britishlibrary/50265902011"},"geometry":{"type":"Point","coordinates":[9.339317872,52.09533252]}},{"@id":"https://w3id.org/KTOP_2/22af4c7d-66f5-4dc9-9bd6-86ce87e78678","type":"Feature","properties":{"title":"Grundriss und Profile des an den linken Ufer der Weser der Festung Hameln gegenüber liegenden Klüt Berges nebst denen auf selbigen angelegten und in der Folge noch erfordlichen Festungs Wercken, um diese Seite in gehorigen Defensions Stand zu setzen und die sichere Communication mit der Stadt dadurch zu erhalten.","url":"https://www.flickr.com/photos/britishlibrary/50265902136"},"geometry":{"type":"Point","coordinates":[9.357193945,52.10948404]}},{"@id":"https://w3id.org/KTOP_2/0d3172d4-f126-4bfa-a28b-84feb53551c9","type":"Feature","properties":{"title":"D. Grund Riss des Sämtlichen Mauerwercks, des projectirten neuen Werckes auf dem Klüth, an der Nördlilchen Seite des bereits verfertigten Forts George; benebst denen Profilen dere Sortien; Casematten und Gallerien.","url":"https://www.flickr.com/photos/britishlibrary/50265241868"},"geometry":null},{"@id":"https://w3id.org/KTOP_2/21676d97-2a1a-479c-9994-765ddf888985","type":"Feature","properties":{"title":"[A plan and profiles of Fort George on the Klüt, near Hameln]","url":"https://www.flickr.com/photos/britishlibrary/50265241818"},"geometry":null},{"@id":"https://w3id.org/KTOP_2/9ae40ef8-6328-48da-abc3-2ef71e2096e4","type":"Feature","properties":{"title":"Topographischer Entwurf der König: Grosbritanische Vestung und Universitaets Statt GOETTINGEN mit den umliegenden Feldern, Bergen und Gegenden auf das richtigste verfertiget","url":"https://www.flickr.com/photos/britishlibrary/50265241048"},"geometry":{"type":"Point","coordinates":[9.972002705,51.56051157]}},{"@id":"https://w3id.org/KTOP_2/cb814475-1cbd-4f1b-9cd1-f0c3f74c594b","type":"Feature","properties":{"title":"GOETTINGA urbs munitissima et splendida electoratus Brunsvico-Luneburgici academia GEORGIA AUGUSTA inclyta accurate aere repraesentata","url":"https://www.flickr.com/photos/britishlibrary/50266079217"},"geometry":{"type":"Point","coordinates":[9.947273195,51.54418662]}},{"@id":"https://w3id.org/KTOP_2/9b501ddc-0aa2-4b32-b7c7-c4bbaf7acc4f","type":"Feature","properties":{"title":"PLAN de GOTTINGEN 1716.","url":"https://www.flickr.com/photos/britishlibrary/50266079157"},"geometry":{"type":"Point","coordinates":[9.94697529,51.54762833]}},{"@id":"https://w3id.org/KTOP_2/b762b62c-cb1a-44c4-98ca-c2c844dc8702","type":"Feature","properties":{"title":"Situations Plan der von den Kaufmann Eckhard zu Munden, angelegten Spiegel Fabrick zur Amelieth bei Niennover","url":"https://www.flickr.com/photos/britishlibrary/50266078932"},"geometry":{"type":"Point","coordinates":[9.608600262,51.72796168]}},{"@id":"https://w3id.org/KTOP_2/909a9b57-d64f-4c49-96db-4d65f87b73db","type":"Feature","properties":{"title":"VORSTELLUNG der gesämten befriedigten Hengst Füllen Weyden bei dem Gestüt zu Neuhaus im Solling","url":"https://www.flickr.com/photos/britishlibrary/50265239113"},"geometry":{"type":"Point","coordinates":[9.548265689,51.76502913]}},{"@id":"https://w3id.org/KTOP_2/785d56de-ca76-43cb-af6c-adb04e2925bc","type":"Feature","properties":{"title":"DAS GESTÜT GEBAÜDE im Grundriss","url":"https://www.flickr.com/photos/britishlibrary/50265899116"},"geometry":null},{"@id":"https://w3id.org/KTOP_2/8a73e432-b35c-4df2-83a8-bb0e654ee478","type":"Feature","properties":{"title":"Vodere Seite des GESTÜT-GEBAÜDES","url":"https://www.flickr.com/photos/britishlibrary/50265899041"},"geometry":null},{"@id":"https://w3id.org/KTOP_2/f5450ad5-fe3f-4ceb-a178-7d6902ee7743","type":"Feature","properties":{"title":"CARTE DES HERZOGTHUMS SACHSENLAUENBURG SO BESTEHT AUS DEN AEMBTER.","url":"https://www.flickr.com/photos/britishlibrary/50266076652"},"geometry":{"type":"Point","coordinates":[11.25823627,53.99946584]}},{"@id":"https://w3id.org/KTOP_2/28f955d9-2a3f-4ef1-9c0d-66bcb7f50ce2","type":"Feature","properties":{"title":"SPECIAL CARTE DES KÖNIGLICH GROSBRITANNISCHEN UND CHURFURSTLICH BRAUNSCHWEIG LUNEBURGISCHEN HERTZOGTHUMS LAUENBURG","url":"https://www.flickr.com/photos/britishlibrary/50265898501"},"geometry":{"type":"Point","coordinates":[11.68546157,54.06944657]}},{"@id":"https://w3id.org/KTOP_2/453122a4-6409-4d34-adde-2317ec602116","type":"Feature","properties":{"title":"MILITAIR CARTE des HERZOGTHUMS LAUENBERG belengen zwischen der Elbe und Trave und den beyden Herzogthuumern Holstein und Mecklenburg Swerin","url":"https://www.flickr.com/photos/britishlibrary/50266076587"},"geometry":{"type":"Point","coordinates":[11.23943183,53.5113656]}},{"@id":"https://w3id.org/KTOP_2/ea940010-356a-4827-9957-46db50221195","type":"Feature","properties":{"title":"MILITAIR CARTE des HERZOGTHUMS LAUENBERG belengen zwischen der Elbe und Trave und den beyden Herzogthuumern Holstein und Mecklenburg Swerin","url":"https://www.flickr.com/photos/britishlibrary/50266076557"},"geometry":{"type":"Point","coordinates":[11.23182506,53.88606391]}},{"@id":"https://w3id.org/KTOP_2/ebd1458c-3442-4f81-a87b-b90866960533","type":"Feature","properties":{"title":"CARTE. des ganzen Laufs der sogenannten STECKNITZ-SCHIFFAHRT so wie sich solche an der TRAWE ohnweit der Reichs-Stadt LÜBECK anfängt, und beij LAUENBURG in den ELBE-STROHM fält","url":"https://www.flickr.com/photos/britishlibrary/50265898361"},"geometry":{"type":"Point","coordinates":[10.77422276,53.94027162]}},{"@id":"https://w3id.org/KTOP_2/4aecdb29-b5cd-4f4f-828f-1aba039ee5c7","type":"Feature","properties":{"title":"CARTE. des ganzen Laufs der sogenannten STECKNITZ-SCHIFFAHRT so wie sich solche an der TRAWE ohnweit der Reichs-Stadt LÜBECK anfängt, und beij LAUENBURG in den ELBE-STROHM fält","url":"https://www.flickr.com/photos/britishlibrary/50265238233"},"geometry":{"type":"Point","coordinates":[10.69682242,53.66307087]}},{"@id":"https://w3id.org/KTOP_2/463b1bad-a6e7-4083-80ef-7de972a3de8d","type":"Feature","properties":{"title":"CARTE. des ganzen Laufs der sogenannten STECKNITZ-SCHIFFAHRT so wie sich solche an der TRAWE ohnweit der Reichs-Stadt LÜBECK anfängt, und beij LAUENBURG in den ELBE-STROHM fält","url":"https://www.flickr.com/photos/britishlibrary/50266076397"},"geometry":{"type":"Point","coordinates":[10.66149356,53.53546733]}},{"@id":"https://w3id.org/KTOP_2/4b2e1636-9205-42d7-940f-d69420989d10","type":"Feature","properties":{"title":"CARTE. des ganzen Laufs der sogenannten STECKNITZ-SCHIFFAHRT so wie sich solche an der TRAWE ohnweit der Reichs-Stadt LÜBECK anfängt, und beij LAUENBURG in den ELBE-STROHM fält","url":"https://www.flickr.com/photos/britishlibrary/50265898231"},"geometry":{"type":"Point","coordinates":[10.63693507,53.67352291]}},{"@id":"https://w3id.org/KTOP_2/ea4ce512-99d9-41e1-92ac-752b9c5453c3","type":"Feature","properties":{"title":"CARTE. des ganzen Laufs der sogenannten STECKNITZ-SCHIFFAHRT so wie sich solche an der TRAWE ohnweit der Reichs-Stadt LÜBECK anfängt, und beij LAUENBURG in den ELBE-STROHM fält","url":"https://www.flickr.com/photos/britishlibrary/50265238083"},"geometry":{"type":"Point","coordinates":[10.84937927,54.28747225]}},{"@id":"https://w3id.org/KTOP_2/d0d9a22c-424a-4b86-be5a-6cb992eb90d8","type":"Feature","properties":{"title":"CARTE. des ganzen Laufs der sogenannten STECKNITZ-SCHIFFAHRT so wie sich solche an der TRAWE ohnweit der Reichs-Stadt LÜBECK anfängt, und beij LAUENBURG in den ELBE-STROHM fält","url":"https://www.flickr.com/photos/britishlibrary/50265898131"},"geometry":null},{"@id":"https://w3id.org/KTOP_2/eb78b4c7-c9c9-4b61-8459-352028e0573f","type":"Feature","properties":{"title":"PLAN von der Festung RATZEBURG mit dem See und umliegenden Gegenden","url":"https://www.flickr.com/photos/britishlibrary/50266075687"},"geometry":{"type":"Point","coordinates":[10.84656487,53.78712484]}},{"@id":"https://w3id.org/KTOP_2/65fe14db-9c27-45eb-ad3e-43cd85dada54","type":"Feature","properties":{"title":"RATZEBURG.","url":"https://www.flickr.com/photos/britishlibrary/50266075632"},"geometry":{"type":"Point","coordinates":[10.77967716,53.70583042]}},{"@id":"https://w3id.org/KTOP_2/0a3dc782-b27b-41df-b51e-c3cbd3871766","type":"Feature","properties":{"title":"Plan von der Stadt und Vestung Ratzeburg.","url":"https://www.flickr.com/photos/britishlibrary/50265897501"},"geometry":{"type":"Point","coordinates":[10.78311572,53.70980512]}},{"@id":"https://w3id.org/KTOP_2/839c6bbf-b907-44e4-aaa9-cce784f631bf","type":"Feature","properties":{"title":"MILITAIR CARTE des FÜRSTENTHUMS LÜNEBURG belegen der Elbe und Aller","url":"https://www.flickr.com/photos/britishlibrary/50266079332"},"geometry":{"type":"Point","coordinates":[12.18823129,54.12073012]}},{"@id":"https://w3id.org/KTOP_2/8ca0a930-af31-4e8e-9745-e9cb586056b6","type":"Feature","properties":{"title":"SITUATIONS PLAN der Festung RATZEBURG Gelegen im Hertzogthum Saxen Lauenburg an der Hertzoglich Mecklenburg Strelitzischen Gräntze","url":"https://www.flickr.com/photos/britishlibrary/50265236333"},"geometry":{"type":"Point","coordinates":[10.79663089,53.71443327]}},{"@id":"https://w3id.org/KTOP_2/951e7d67-99a6-4d1b-bf20-9536f5db0507","type":"Feature","properties":{"title":"DIE STAD und FESTUNG, RATZEBURG","url":"https://www.flickr.com/photos/britishlibrary/50265896181"},"geometry":{"type":"Point","coordinates":[10.78786205,53.70766346]}},{"@id":"https://w3id.org/KTOP_2/e8b6f1a4-30af-4b3d-bef9-94d06b8a3ed1","type":"Feature","properties":{"title":"RAPPORT=RISS von der Vestung Reparations zu RATZEBURG.","url":"https://www.flickr.com/photos/britishlibrary/50265896106"},"geometry":{"type":"Point","coordinates":[10.78914159,53.7121432]}},{"@id":"https://w3id.org/KTOP_2/31aa8a39-70ee-463b-a6a4-5b6e6ead138d","type":"Feature","properties":{"title":"PLAN vor der Situation der Stadt und Festung Ratzeburg","url":"https://www.flickr.com/photos/britishlibrary/50265236173"},"geometry":{"type":"Point","coordinates":[10.77867272,53.70629588]}},{"@id":"https://w3id.org/KTOP_2/7a6d0eeb-7f0a-46ab-86ef-409b000b811d","type":"Feature","properties":{"title":"Plan von Ratzeburg und deßen environs, wie auch festungs wercken","url":"https://www.flickr.com/photos/britishlibrary/50265895951"},"geometry":{"type":"Point","coordinates":[10.78861167,53.71183654]}},{"@id":"https://w3id.org/KTOP_2/a07361fd-7f86-4887-98a1-4b337a2a62f9","type":"Feature","properties":{"title":"GRUND RISS des Hadeler Sietlandes.","url":"https://www.flickr.com/photos/britishlibrary/50265895846"},"geometry":{"type":"Point","coordinates":[9.009330364,53.76764724]}},{"@id":"https://w3id.org/KTOP_2/98666a03-d360-43ce-ad7f-6c3aa2599518","type":"Feature","properties":{"title":"CARTE VON DEM WIETZENBRUCH UND DER ALLER IN DER BURGVOIGTEY WIE AUCH IN DENEN VOIGTEYEN WINSEN UND BURGWEDEL","url":"https://www.flickr.com/photos/britishlibrary/50265897421"},"geometry":{"type":"Point","coordinates":[9.813886807,52.68416499]}},{"@id":"https://w3id.org/KTOP_2/f53f59fb-c72e-4266-b42b-7919e08ac688","type":"Feature","properties":{"title":"CARTE VON DEM WIETZENBRUCH UND DER ALLER IN DER BURGVOIGTEY WIE AUCH IN DENEN VOIGTEYEN WINSEN UND BURGWEDEL","url":"https://www.flickr.com/photos/britishlibrary/50265237323"},"geometry":{"type":"Point","coordinates":[9.979113053,52.69193436]}},{"@id":"https://w3id.org/KTOP_2/4f9da8ba-bcf4-463c-a302-443c30a6413c","type":"Feature","properties":{"title":"CARTE VON DEM WIETZENBRUCH UND DER ALLER IN DER BURGVOIGTEY WIE AUCH IN DENEN VOIGTEYEN WINSEN UND BURGWEDEL","url":"https://www.flickr.com/photos/britishlibrary/50266075437"},"geometry":{"type":"Point","coordinates":[10.11973696,52.65280854]}},{"@id":"https://w3id.org/KTOP_2/df1757c3-9c09-45c1-bfe7-6ffe50293604","type":"Feature","properties":{"title":"CARTE VON DEM WIETZENBRUCH UND DER ALLER IN DER BURGVOIGTEY WIE AUCH IN DENEN VOIGTEYEN WINSEN UND BURGWEDEL","url":"https://www.flickr.com/photos/britishlibrary/50265897206"},"geometry":null},{"@id":"https://w3id.org/KTOP_2/5b3b2c56-84a3-4468-88cf-c54c1da9eef4","type":"Feature","properties":{"title":"CARTE VON DEM WIETZENBRUCH UND DER ALLER IN DER BURGVOIGTEY WIE AUCH IN DENEN VOIGTEYEN WINSEN UND BURGWEDEL","url":"https://www.flickr.com/photos/britishlibrary/50265237113"},"geometry":{"type":"Point","coordinates":[9.997375947,52.73092799]}},{"@id":"https://w3id.org/KTOP_2/98c6c0c9-4e34-415a-95d1-df6a560c9937","type":"Feature","properties":{"title":"CARTE VON DEM WIETZENBRUCH UND DER ALLER IN DER BURGVOIGTEY WIE AUCH IN DENEN VOIGTEYEN WINSEN UND BURGWEDEL","url":"https://www.flickr.com/photos/britishlibrary/50265237043"},"geometry":{"type":"Point","coordinates":[10.11934431,52.59069044]}},{"@id":"https://w3id.org/KTOP_2/2f94e964-5e0e-4cbd-8160-3337b9ef6031","type":"Feature","properties":{"title":"CARTE VON DEM WIETZENBRUCH UND DER ALLER IN DER BURGVOIGTEY WIE AUCH IN DENEN VOIGTEYEN WINSEN UND BURGWEDEL","url":"https://www.flickr.com/photos/britishlibrary/50266075227"},"geometry":{"type":"Point","coordinates":[9.812686774,52.58673684]}},{"@id":"https://w3id.org/KTOP_2/f8395a7d-432c-4c6a-a124-68d3b2fc14bd","type":"Feature","properties":{"title":"CARTE VON DEM WIETZENBRUCH UND DER ALLER IN DER BURGVOIGTEY WIE AUCH IN DENEN VOIGTEYEN WINSEN UND BURGWEDEL","url":"https://www.flickr.com/photos/britishlibrary/50265896621"},"geometry":{"type":"Point","coordinates":[9.953156571,52.57132368]}},{"@id":"https://w3id.org/KTOP_2/10693b76-7f1a-4be4-8d1d-45f2b41c9f0b","type":"Feature","properties":{"title":"CARTE VON DEM WIETZENBRUCH UND DER ALLER IN DER BURGVOIGTEY WIE AUCH IN DENEN VOIGTEYEN WINSEN UND BURGWEDEL","url":"https://www.flickr.com/photos/britishlibrary/50265896476"},"geometry":{"type":"Point","coordinates":[10.11462964,52.5476993]}},{"@id":"https://w3id.org/KTOP_2/e6fae643-82ef-4709-a389-a24ebe257efa","type":"Feature","properties":{"title":"CARTE VON DEM WIETZENBRUCH UND DER ALLER IN DER BURGVOIGTEY WIE AUCH IN DENEN VOIGTEYEN WINSEN UND BURGWEDEL","url":"https://www.flickr.com/photos/britishlibrary/50265896401"},"geometry":{"type":"Point","coordinates":[10.13379964,52.70325398]}},{"@id":"https://w3id.org/KTOP_2/e0674cc3-7a53-4ef8-a546-b279a21b4da2","type":"Feature","properties":{"title":"GENERAL CARTE von der Koeniglichen Amtsvoigtei ITEN","url":"https://www.flickr.com/photos/britishlibrary/50265896336"},"geometry":{"type":"Point","coordinates":[10.10600319,52.45764619]}},{"@id":"https://w3id.org/KTOP_2/dd3009de-636f-46b8-b844-9863fe877b25","type":"Feature","properties":{"title":"PLAN DE LA FOREST DE GOERDE ET DE LA MAISON DE CHASSE DE Sa Majesté le Roy de la grande Bretagne dans ses Etats de Bronsvic-Lunebourg ce Plan representent en particulier les Parties et Cables du Goerde et les Routes pour la Chasse qui les traversent, il y a deux petites Cartes de la Situation aux Côtés qui marquent les Forest et Bois ou la Chasse se peut entendre a 4 lieu a l'entour 1717.","url":"https://www.flickr.com/photos/britishlibrary/50266073767"},"geometry":{"type":"Point","coordinates":[11.02026787,53.2070962]}},{"@id":"https://w3id.org/KTOP_2/17099cba-53b2-4ed3-a393-bd1318b0b10e","type":"Feature","properties":{"title":"tabULA ICHNOGRAPHICA ACCURATISSIMA BRUNSVIGAE, DUCATUS BRUNSVICENSIS METROPOLIS MUNITISSIMAE ET AMPLISSIMAE, NEC NON REGIONIS, QUAE EAM CINGIT, EX DELINEATIONE RECENTISSIMA AERI INCISA ET EXCUSA PER MATTHAEUM SEUTTERUM S. C. M. GEOGR. A V. Cu pr. S. Vic. in parti Rheni: Svev: et Franc: jur. = ACCURATE ICHNOGRAPHISCHE VORSTELLUNG DER HAUPT-STADT UND VESTUNF BRAUNSCHWEIG NEBST DER UM DIESELBE LIEGendEN GEGend, NACH DER NEUESTEN ZEICHNUNG IN KUPFER GESTOCHEN UND VERLEGT","url":"https://www.flickr.com/photos/britishlibrary/50265895371"},"geometry":{"type":"Point","coordinates":[10.58120093,52.29567861]}},{"@id":"https://w3id.org/KTOP_2/09f5c857-7982-4dd0-bfee-218c23ef8624","type":"Feature","properties":{"title":"MEKELNBURG DUCATUS.","url":"https://www.flickr.com/photos/britishlibrary/50266073607"},"geometry":{"type":"Point","coordinates":[13.97960236,54.63518065]}},{"@id":"https://w3id.org/KTOP_2/2b47d1f9-bf41-4ad2-bd23-61e18d38086b","type":"Feature","properties":{"title":"IL DUCATO DU MEKLENBURGO che e parte della BASSA SASSONIA","url":"https://www.flickr.com/photos/britishlibrary/50265235443"},"geometry":{"type":"Point","coordinates":[13.68225639,54.93455518]}},{"@id":"https://w3id.org/KTOP_2/292dfe93-4e98-4b68-a8ee-841b3ca891e4","type":"Feature","properties":{"title":"DUCATUS MEKLENBURGICUS in quo sunt DUCATUS VANDALIAE et MEKLENBURGI COMITATU et EPISCOPATUS SWERINENSI ROSTOCHIENSE et STARGARDIENSES DOMIN","url":"https://www.flickr.com/photos/britishlibrary/50265235343"},"geometry":{"type":"Point","coordinates":[13.77586918,55.03542157]}},{"@id":"https://w3id.org/KTOP_2/b4b031ce-3413-4330-984b-59036210f9d5","type":"Feature","properties":{"title":"DUCATUS MEKLENBURGICUS in quo sunt DUCATUS VANDALIAE et MEKLENBURGI COMITATU et EPISCOPATUS SWERINENSI ROSTOCHIENSE et STARGARDIENSES DOMIN","url":"https://www.flickr.com/photos/britishlibrary/50265895136"},"geometry":{"type":"Point","coordinates":[13.88815434,55.04879813]}},{"@id":"https://w3id.org/KTOP_2/8b8cf334-9cf0-4533-a4cd-682a1592fe67","type":"Feature","properties":{"title":"DUCATUS MEKLENBURGICUS in quo sunt DUCATUS VANDALIAE et MEKLENBURGI COMITATUS et EPISCOPATUS SWERINENSIS ROSTOCHIENSE et STARGARDIESES DOM","url":"https://www.flickr.com/photos/britishlibrary/50265235213"},"geometry":{"type":"Point","coordinates":[13.70228961,54.77588169]}},{"@id":"https://w3id.org/KTOP_2/da0233fe-fa51-43c2-955d-e55bc54c47a9","type":"Feature","properties":{"title":"DUCATUS MEKLENBURGICI tabula Generalis continens DUC. VANDALIAE et MEKLENBUEG COMITATUM ET EPISCOPATUM SWERINENSEM ROSTOCHIENSE et STARGARDIENSE DOMINUM","url":"https://www.flickr.com/photos/britishlibrary/50265894971"},"geometry":{"type":"Point","coordinates":[13.84183108,55.06030844]}},{"@id":"https://w3id.org/KTOP_2/dd98425b-ff6d-4cc5-8e06-53b1149bf906","type":"Feature","properties":{"title":"Mappa Ducatus Megalopolitani nova ad statum hodiernum in tres partes earundemque praefecturas distincta auctoritate publica quondam adornata, nunc vero exactior.","url":"https://www.flickr.com/photos/britishlibrary/50265235043"},"geometry":{"type":"Point","coordinates":[13.98706858,54.47834421]}},{"@id":"https://w3id.org/KTOP_2/08d9b5ad-9e4e-4571-9462-b9c6f3075e4c","type":"Feature","properties":{"title":"CHARTA DUCATUS MEGAPOLENSIS ad statum hodiernum in suas Provincias et Praefecturas divisa, et in hanc formam redacta","url":"https://www.flickr.com/photos/britishlibrary/50265894816"},"geometry":{"type":"Point","coordinates":[13.9234806,54.55026373]}},{"@id":"https://w3id.org/KTOP_2/8c239904-82ac-426d-ba4f-75b98dde8e7a","type":"Feature","properties":{"title":"Plan de Dömitz.","url":"https://www.flickr.com/photos/britishlibrary/50265894276"},"geometry":{"type":"Point","coordinates":[11.25436004,53.1457201]}},{"@id":"https://w3id.org/KTOP_2/d74324e4-f517-4c1c-9ca4-4f49eda5fd40","type":"Feature","properties":{"title":"PLAN de ROSTOCK wie solches Hatt Sollen fortificuret werden auch Ao. 1717 1718 1719 daran gearbeitet nach gehnts aber eingehalten ist.","url":"https://www.flickr.com/photos/britishlibrary/50266072577"},"geometry":{"type":"Point","coordinates":[12.16483124,54.10051313]}},{"@id":"https://w3id.org/KTOP_2/8fc4e51d-b067-454a-a48a-b7da3134591a","type":"Feature","properties":{"title":"Plan au rez de chaussée ou le bas Etage du chateau de Neustrelitz.","url":"https://www.flickr.com/photos/britishlibrary/50265234438"},"geometry":{"type":"Point","coordinates":[13.05797975,53.36007897]}},{"@id":"https://w3id.org/KTOP_2/263c214e-d111-4152-a2ae-1dbf16bba036","type":"Feature","properties":{"title":"Plan du second ou bel Etage du Chateau de Neustrelitz.","url":"https://www.flickr.com/photos/britishlibrary/50265894081"},"geometry":{"type":"Point","coordinates":[13.05441229,53.36033642]}},{"@id":"https://w3id.org/KTOP_2/7b789547-be00-4873-87b3-912dc56efe35","type":"Feature","properties":{"title":"Plan du troisieme Etage du Chateau de Neu Strelitz.","url":"https://www.flickr.com/photos/britishlibrary/50265234353"},"geometry":{"type":"Point","coordinates":[13.05441519,53.36033701]}},{"@id":"https://w3id.org/KTOP_2/9cf1178a-1595-4cdb-a3e5-e530729cbc87","type":"Feature","properties":{"title":"Nieuwe Afteekening van de Haven en Stad Wismar met Desselts Inkoomende zee Gaaten soo Beoosten als Beweste Poel Eyland en beleegering van dito Stad","url":"https://www.flickr.com/photos/britishlibrary/50266072212"},"geometry":{"type":"Point","coordinates":[12.03993212,54.16765966]}},{"@id":"https://w3id.org/KTOP_2/d4234b11-8f32-48b4-b801-e92dda3cccb2","type":"Feature","properties":{"title":"HOLSATIA ducatus","url":"https://www.flickr.com/photos/britishlibrary/50266071837"},"geometry":{"type":"Point","coordinates":[11.28379171,54.65879306]}},{"@id":"https://w3id.org/KTOP_2/16c3f4dd-d9fb-433a-9e02-bb18afe827c3","type":"Feature","properties":{"title":"DUCATUS HOLSATIAE NOVA tabULA","url":"https://www.flickr.com/photos/britishlibrary/50265893351"},"geometry":{"type":"Point","coordinates":[11.42506412,55.21889925]}},{"@id":"https://w3id.org/KTOP_2/f6548007-bdc4-4b78-8fa0-844bde29c7c0","type":"Feature","properties":{"title":"IL DUCATO D'HOLSATIA","url":"https://www.flickr.com/photos/britishlibrary/50265233638"},"geometry":{"type":"Point","coordinates":[11.44754308,54.60541906]}},{"@id":"https://w3id.org/KTOP_2/47984bea-52fa-43c8-8dfc-77f0b10b65c1","type":"Feature","properties":{"title":"HOLSATIAE tabULA GENERALIS in qua sunt DUCATUS HOLSATIAE, DITHMARSIAE, STORMARIAE et WAGRIAE","url":"https://www.flickr.com/photos/britishlibrary/50265893231"},"geometry":{"type":"Point","coordinates":[11.24038261,54.60461198]}},{"@id":"https://w3id.org/KTOP_2/230364b6-f6c9-4f8f-b31d-19c29c5c185c","type":"Feature","properties":{"title":"tabULA GENERALIS HOLSATIAE in qua sunt DUCATUS HOLSATIAE, DITMARSIAE, STORMARIAE, WAGRIAE, COMITATUS PINNENBERGENSIS et EPISCOPATUS LUBECENSIS","url":"https://www.flickr.com/photos/britishlibrary/50265233543"},"geometry":{"type":"Point","coordinates":[11.10414101,54.56289148]}},{"@id":"https://w3id.org/KTOP_2/e76c3df8-2962-45d3-b6b8-ec4069b06954","type":"Feature","properties":{"title":"Plan von der Stadt BRAUNSCHWEIG und derselben fortification.","url":"https://www.flickr.com/photos/britishlibrary/50265894411"},"geometry":{"type":"Point","coordinates":[10.55844451,52.29529249]}},{"@id":"https://w3id.org/KTOP_2/ce1a7117-1140-4c4e-84d4-203612a0042f","type":"Feature","properties":{"title":"Wolfenbüttel.","url":"https://www.flickr.com/photos/britishlibrary/50265894336"},"geometry":{"type":"Point","coordinates":[10.54823767,52.17053606]}},{"@id":"https://w3id.org/KTOP_2/23f8da34-8139-49ed-b28c-83d4d1e38e21","type":"Feature","properties":{"title":"EPISCOPATUS HALBERSTADENSIS Descriptio nova.","url":"https://www.flickr.com/photos/britishlibrary/50265893116"},"geometry":{"type":"Point","coordinates":[12.58271416,52.6368429]}},{"@id":"https://w3id.org/KTOP_2/62eac432-aaac-4dd8-8a3b-43d3f2ee2915","type":"Feature","properties":{"title":"HOLSATIAE DUCATUS, VERNACULÈ DAS HERTZOGTUM HOLSTEIN","url":"https://www.flickr.com/photos/britishlibrary/50265233453"},"geometry":{"type":"Point","coordinates":[11.62132385,54.54724943]}},{"@id":"https://w3id.org/KTOP_2/a1c1b60f-b3aa-4cc1-a127-feccc4e891b2","type":"Feature","properties":{"title":"tabULA GENERALIS HOLSATIAE complectens HOLSATIAE DITHMARSIAE STORMARIAE ET VAGRIAE DUCATUS","url":"https://www.flickr.com/photos/britishlibrary/50266071452"},"geometry":{"type":"Point","coordinates":[11.38676868,54.61229571]}},{"@id":"https://w3id.org/KTOP_2/951bd5f0-66e4-477a-98e0-1d6c8142b3c1","type":"Feature","properties":{"title":"Vereinigung des Schleswigschen Hollsteinschen Canals mit der Ostsee und Nordsee.","url":"https://www.flickr.com/photos/britishlibrary/50265233293"},"geometry":{"type":"Point","coordinates":[10.47420049,54.44639045]}},{"@id":"https://w3id.org/KTOP_2/b98623bb-d332-49b7-8d26-7fe953b9dc8f","type":"Feature","properties":{"title":"RendSBOURG","url":"https://www.flickr.com/photos/britishlibrary/50266071337"},"geometry":{"type":"Point","coordinates":[9.686882293,54.31820114]}},{"@id":"https://w3id.org/KTOP_2/7da1bd52-06c3-47d7-9d22-6c8ed196a530","type":"Feature","properties":{"title":"Grundris der Koeniglichen Daenischen Vestung RendSBURG. im Hertzogthum Hollstein gelegen","url":"https://www.flickr.com/photos/britishlibrary/50265232848"},"geometry":{"type":"Point","coordinates":[99.76490681,86.52330095]}},{"@id":"https://w3id.org/KTOP_2/1775b885-1e11-4576-99cd-af1513202b53","type":"Feature","properties":{"title":"EPISCOPATUS HILDESIENSIS DESCRIPTIO NOVISSIMA","url":"https://www.flickr.com/photos/britishlibrary/50265232728"},"geometry":{"type":"Point","coordinates":[10.72308164,52.41956541]}},{"@id":"https://w3id.org/KTOP_2/e0c7f76b-35c3-4d08-b1c2-3e3f2e4c4a77","type":"Feature","properties":{"title":"EPISCOPATUS HILDESIENSIS NEC NON VICINORUM STATUUM DELINEATIO GEOGRAPHICA.","url":"https://www.flickr.com/photos/britishlibrary/50265892421"},"geometry":{"type":"Point","coordinates":[11.18455531,52.50381879]}},{"@id":"https://w3id.org/KTOP_2/05ea45b2-4c91-40de-986f-a28ade54ce21","type":"Feature","properties":{"title":"Special Karte von dem FÜRSTENTHUM HILDESHEIM und den angrenzenden Ländern","url":"https://www.flickr.com/photos/britishlibrary/50266070707"},"geometry":{"type":"Point","coordinates":[10.78288639,52.58663993]}},{"@id":"https://w3id.org/KTOP_2/a40d06a7-3243-434a-a899-3f7cf3dcbae5","type":"Feature","properties":{"title":"GRUND RIS DER STADT HILDESHEIM.","url":"https://www.flickr.com/photos/britishlibrary/50265892321"},"geometry":{"type":"Point","coordinates":[9.967268411,52.16184399]}},{"@id":"https://w3id.org/KTOP_2/71d0a2df-9c70-4321-8850-7b852906c8e3","type":"Feature","properties":{"title":"Territorium Hamburgense cum adjacentibus regionibus.","url":"https://www.flickr.com/photos/britishlibrary/50265232413"},"geometry":{"type":"Point","coordinates":[10.58972846,53.84067084]}},{"@id":"https://w3id.org/KTOP_2/d4d242ad-89d5-46cb-8d58-d774c2800a0f","type":"Feature","properties":{"title":"NOBILIS FLUVIUS ALBIS maxima cura ex varijs famosisq. Autoribus collectus, et in lucem editus","url":"https://www.flickr.com/photos/britishlibrary/50265892086"},"geometry":{"type":"Point","coordinates":[10.46526639,53.73732721]}},{"@id":"https://w3id.org/KTOP_2/1bef1e0d-ce01-4597-b9df-b395f5117bd4","type":"Feature","properties":{"title":"NOBILIS FLUVIUS ALBIS maxima cura ex varijs famosisq. Autoribus collectus, et in lucem editus","url":"https://www.flickr.com/photos/britishlibrary/50266070402"},"geometry":{"type":"Point","coordinates":[9.726154389,54.1968457]}},{"@id":"https://w3id.org/KTOP_2/940eb5de-79cf-424c-980d-b8fe297e5a18","type":"Feature","properties":{"title":"NOBILIS FLUVIUS ALBIS maxima cura ex variis famosisq. Autoribus collectus, et in lucem editus","url":"https://www.flickr.com/photos/britishlibrary/50266069872"},"geometry":{"type":"Point","coordinates":[10.111692,53.65601916]}},{"@id":"https://w3id.org/KTOP_2/64fa08df-db71-4569-b578-2cb2bc5d24d5","type":"Feature","properties":{"title":"NOBILIS FLUVIUS ALBIS maxima cura ex variis famosisq. Autoribus collectus, et in lucem editus","url":"https://www.flickr.com/photos/britishlibrary/50265891456"},"geometry":{"type":"Point","coordinates":[9.619634449,54.11998186]}},{"@id":"https://w3id.org/KTOP_2/69e229ba-5e17-4d56-927f-02166168c17d","type":"Feature","properties":{"title":"EINE ACCURATE CHARTE VON DER ELBE-STROHM SAMPT DER KEYSERLICHEN REICHS FREYSTADT HAMBURG UND DESSEN ZUGEHÖRIGEN LANDERN","url":"https://www.flickr.com/photos/britishlibrary/50266069702"},"geometry":{"type":"Point","coordinates":[10.43980178,53.69819308]}},{"@id":"https://w3id.org/KTOP_2/9246343f-8188-41ba-9a96-7e9d3216d8d7","type":"Feature","properties":{"title":"EINE ACCURATE CHARTE VON DER ELBE-STROHM SAMPT DER KEYSERLICHEN REICHS FREYSTADT HAMBURG UND DESSEN ZUGEHÖRIGEN LANDERN","url":"https://www.flickr.com/photos/britishlibrary/50265891351"},"geometry":{"type":"Point","coordinates":[9.616047525,54.07575033]}},{"@id":"https://w3id.org/KTOP_2/5d4ac453-9d08-4654-88fb-762b52df6993","type":"Feature","properties":{"title":"PROSPECT und GRUNDRIS der KEISERL. FREYEN REICHS und ANSEE STADT HAMBURG, samt ihrer GEGend","url":"https://www.flickr.com/photos/britishlibrary/50266069587"},"geometry":{"type":"Point","coordinates":[10.29362881,53.63260535]}},{"@id":"https://w3id.org/KTOP_2/3636ffac-9a3d-4264-8825-0b1a944c50c6","type":"Feature","properties":{"title":"HAMBURGUM.","url":"https://www.flickr.com/photos/britishlibrary/50266069487"},"geometry":{"type":"Point","coordinates":[10.02386868,53.56621227]}},{"@id":"https://w3id.org/KTOP_2/26ecd732-0e81-46ea-a83e-e16498cf2912","type":"Feature","properties":{"title":"Nova hanc CIVITATI HAMBURGENSIS accuratißimam tabulam Ndiß.is Magnificis Amplißimis Clarißimis Prudtißimisq. Dominis Dnn Consulibuae Senatoribus Nec non honnoratissis ac Spectatissimis In dyae eius de Roiq: Hamburg.","url":"https://www.flickr.com/photos/britishlibrary/50266069392"},"geometry":{"type":"Point","coordinates":[10.0264696,53.56889563]}},{"@id":"https://w3id.org/KTOP_2/dc60cbb3-dbf3-4ce1-9002-8001caca2745","type":"Feature","properties":{"title":"a New Groundplot of the CITTY of HAMBURG.","url":"https://www.flickr.com/photos/britishlibrary/50265231463"},"geometry":{"type":"Point","coordinates":[10.01902375,53.56438114]}},{"@id":"https://w3id.org/KTOP_2/dfb20363-cf0b-48b5-9e7f-377294a79ff1","type":"Feature","properties":{"title":"Plan de HAMBURG.","url":"https://www.flickr.com/photos/britishlibrary/50265890971"},"geometry":{"type":"Point","coordinates":[10.07112611,53.58513056]}},{"@id":"https://w3id.org/KTOP_2/0264fe81-1162-460e-87eb-dec1318e64a3","type":"Feature","properties":{"title":"Grundriss der Kayserl. Freien Reichs und Handels Stadt Hamburg.","url":"https://www.flickr.com/photos/britishlibrary/50265231348"},"geometry":{"type":"Point","coordinates":[10.03205623,53.57410608]}},{"@id":"https://w3id.org/KTOP_2/3b9cb425-ee1b-4145-a07f-599b5c97170d","type":"Feature","properties":{"title":"SITUATIONS CHARTE des Hamburgischen Ambts Ritzbüttel daran gräntzenden Chur Hannoverischen Aembtern und Districten des Hertzogthumbs Bremen","url":"https://www.flickr.com/photos/britishlibrary/50265230478"},"geometry":{"type":"Point","coordinates":[8.822477954,53.91909118]}},{"@id":"https://w3id.org/KTOP_2/4c4a739c-ff16-40e0-b398-52501b8f4472","type":"Feature","properties":{"title":"Particuliere carte vom Fürsthenthum Halberstadt.","url":"https://www.flickr.com/photos/britishlibrary/50265232213"},"geometry":{"type":"Point","coordinates":[11.88947306,52.33915507]}},{"@id":"https://w3id.org/KTOP_2/603e2f5f-42aa-4441-834c-a04faa764a23","type":"Feature","properties":{"title":"tabULA Geographica PRINCIPATUS HALBERSTADIENSIS","url":"https://www.flickr.com/photos/britishlibrary/50266068207"},"geometry":{"type":"Point","coordinates":[11.96180552,52.26284891]}},{"@id":"https://w3id.org/KTOP_2/5f1da6c3-ee32-4885-894c-fb5014d0d721","type":"Feature","properties":{"title":"Hand Zeichnung der Mündungen, mit einer Strecke der Flüßn, der Elbe und Weser;","url":"https://www.flickr.com/photos/britishlibrary/50266068142"},"geometry":{"type":"Point","coordinates":[9.274843978,54.54485983]}},{"@id":"https://w3id.org/KTOP_2/9c190996-9d26-402f-8645-dcd45c1b3bfd","type":"Feature","properties":{"title":"PRINCIPATUS HALBERSTADIENSIS, ABBAT: QUEDLINBURGENS cum Comitatu WERNIGERODANO, ad hodiernum verum statum ex acta prodiit","url":"https://www.flickr.com/photos/britishlibrary/50265889301"},"geometry":{"type":"Point","coordinates":[11.81673723,52.22553419]}},{"@id":"https://w3id.org/KTOP_2/f79ccade-aa3a-4ea3-a96b-52c56cdcf0f5","type":"Feature","properties":{"title":"Mappa specialis PRINCIPATUS HALBERSTADIENSIS una cum unitis cum eo terris COMITATUS REINSTEIN et Dynastiae DERENBURG, repraesentans simul Abbatiam QUEDLINGBURG & Comitat. WERNIGERODE, nec non conterminum Principat. BLANCKENBURG, herciniam Anhaltimam et Dynastiam SCHAVEN. delineatum prima a G. Hier. RIESE Architect milit. Borussico et Architect provinciali Halberstadiensi Dein correctior reddita a Tobia Majero, Societ. Cosmogr. sodali , curantibus Homannianis Heredibus Norimbergae A. MDCCL. =","url":"https://www.flickr.com/photos/britishlibrary/50266067542"},"geometry":{"type":"Point","coordinates":[11.92680724,52.29162285]}}],"indexing":{"@type":"Dataset","name":"KTOP 2","description":"","license":"https://creativecommons.org/licenses/by/4.0/","identifier":"https://w3id.org/KTOP_2","temporalCoverage":"1066/2022","spatialCoverage":{"@type":"GeoShape","box":"0.580101 0.00149 60.355 9.78667","geo":{"@type":"GeoShape","box":"49.18575447 1.7515813 86.52330095 99.76490681"}}}}